{
  "Naomi Khan": [{
      "name": "ISSUE Project Room",
      "coordinates": [
        -73.98952481348374,
        40.690692717192576
      ],
      "time": 0,
      "stayDuration": 1,
      "interior": 1
    }, {
      "name": "Sephora",
      "coordinates": [
        -73.99042372887936,
        40.692302258434665
      ],
      "time": 6,
      "stayDuration": 2
    }, {
      "name": "Top Beauty",
      "pass_through": [-73.98749011000541, 40.691585313677024],
      "coordinates": [
        -73.98724293447953,
        40.691923693517424
      ],
      "time": 16,
      "stayDuration": 5,
      "interior": 1
    }, {
      "name": "Top Beauty",
      "coordinates": [
        -73.98724293447953,
        40.691923693517424
      ],
      "time": 21,
      "stayDuration": 11
    }, {
      "name": "Beauty 35",
      "coordinates": [
        -73.98399300000335,
        40.690241797368174
      ],
      "time": 37,
      "stayDuration": 2,
      "interior": 1
    }, {
      "name": "Beauty 35",
      "coordinates": [
        -73.98399300000335,
        40.690241797368174
      ],
      "time": 39,
      "stayDuration": 9
    }, {
      "name": "McDonald's Flatbush Ave Extension",
      "coordinates": [
        -73.98069708289398,40.68899156434517],
      "time": 56,
      "stayDuration": 18,
      "interior": 1
    }, {
      "name": "ISSUE Project Room",
      "pass_through": [-73.98874275583239, 40.69196997005824],
      "coordinates": [
        -73.98952481348374,
        40.690692717192576
      ],
      "time": 90,
      "stayDuration": 10,
      "interior": 1
    }
  ],
  "Rachel Brooks": [{
      "name": "ISSUE Project Room",
      "coordinates": [
        -73.98952481348374,
        40.690692717192576
      ],
      "time": 0
    }, {
      "name": "Michael's Atlantic Ave",
      "coordinates": [-73.99047460509996, 40.68889640744348
      ],
      "time": 7,
      "stayDuration": 12,
      "interior": 1
    }, {
      "name": "Top Beauty",
      "coordinates": [
        -73.98724293447953,
        40.691923693517424
      ],
      "time": 25,
      "stayDuration": 7
    }, {
      "name": "Beauty 35",
      "coordinates": [
        -73.98399300000335,
        40.690241797368174
      ],
      "time": 37,
      "stayDuration": 2,
      "interior": 1
    }, {
      "name": "Beauty 35",
      "coordinates": [
        -73.98399300000335,
        40.690241797368174
      ],
      "time": 39,
      "stayDuration": 8
    }, {
      "name": "Beauty 35",
      "coordinates": [
        -73.98399300000335,
        40.690241797368174
      ],
      "time": 47,
      "stayDuration": 2,
      "interior": 1
    }, {
      "name": "Starbuck Court St",
      "coordinates": [
        -73.99122099998579,
        40.69234812360682
      ],
      "time": 57,
      "stayDuration": 15,
      "interior": 1
    }, {
      "name": "ISSUE Project Room",
      "coordinates": [
        -73.98952481348374,
        40.690692717192576
      ],
      "time": 93,
      "stayDuration": 7,
      "interior": 1
    }
  ],
  "Nawan Bailey": [{
      "name": "ISSUE Project Room",
      "coordinates": [
        -73.98952481348374,
        40.690692717192576
      ],
      "time": 0,
      "stayDuration": 2,
      "interior": 1
    }, {
      "name": "Brooklyn House of Detention - across from",
      "coordinates": [
        -73.98939232701781,
        40.689565448764824
      ],
      "time": 5,
      "stayDuration": 9
    }, {
      "name": "Albee Square",
      "pass_through": [-73.98441444712478, 40.68760822141866],
      "coordinates": [
        -73.98344681831634,
        40.68994784305596
      ],
      "time": 22,
      "stayDuration": 4
    }, {
      "name": "Transit Adjudication Bureau",
      "pass_through": [-73.98497264682487, 40.689463132778485],
      "coordinates": [
        -73.98673281349062,
        40.69042539221124
      ],
      "time": 32,
      "stayDuration": 1
    }, {
      "name": "McDonald's Fulton St",
      "coordinates": [
        -73.9861538135035,
        40.690823527448
      ],
      "time": 34,
      "stayDuration": 3
    }, {
      "name": "Fort Greene Park",
      "coordinates": [
        -73.97663115992776,
        40.6904009717787
      ],
      "time": 54,
      "stayDuration": 11
    }, {
      "name": "G Train Station Fulton St Stop Queens Bound",
      "pass_through": [-73.97673465316791, 40.6882847350507, -73.9755491466276, 40.68684393096524],
      "coordinates": [
        -73.97459382459914,
        40.6869832790631
      ],
      "time": 71,
      "stayDuration": 1,
      "interior": 1
    }, {
      "name": "G Train Station Fulton St Stop Brooklyn Bound",
      "coordinates": [
        -73.97451543394936,
        40.68654786691209
      ],
      "time": 73,
      "stayDuration": 7,
      "interior": 1
    }, {
      "name": "Jay Street Metro Tech Station Willoughby Exit",
      "coordinates": [
        -73.98738813947614,
        40.69235204116163
      ],
      "time": 84,
      "stayDuration": 1,
      "interior": 1
    }, {
      "name": "ISSUE Project Room",
      "coordinates": [
        -73.98952481348374,
        40.690692717192576
      ],
      "time": 89,
      "stayDuration": 11,
      "interior": 1
    }
  ],
  "Kuan-Yi Chen": [{
      "name": "ISSUE Project Room",
      "coordinates": [
        -73.98952481348374,
        40.690692717192576
      ],
      "time": 0,
      "stayDuration": 1,
      "interior": 1
    }, {
      "name": "ISSUE Project Room",
      "coordinates": [
        -73.98952481348374,
        40.690692717192576
      ],
      "time": 1,
      "stayDuration": 1,
      "interior": 0
    }, {
      "name": "Brooklyn House of Detention - across from",
      "coordinates": [
        -73.98939232701781,
        40.689565448764824
      ],
      "time": 5,
      "stayDuration": 9
    }, {
      "name": "Albee Square",
      "pass_through": [-73.98441444712478, 40.68760822141866],
      "coordinates": [
        -73.98344681831634,
        40.68994784305596
      ],
      "time": 22,
      "stayDuration": 4
    }, {
      "name": "Transit Adjudication Bureau",
      "pass_through": [-73.98497264682487, 40.689463132778485],
      "coordinates": [
        -73.98673281349062,
        40.69042539221124
      ],
      "time": 32,
      "stayDuration": 1
    }, {
      "name": "McDonald's Fulton St",
      "coordinates": [
        -73.9861538135035,
        40.690823527448
      ],
      "time": 34,
      "stayDuration": 4
    }, {
      "name": "McDonald's Fulton St",
      "coordinates": [
        -73.9861538135035,
        40.690823527448
      ],
      "time": 38,
      "stayDuration": 5,
      "interior": 1
    }, {
      "name": "Shake Shack",
      "coordinates": [
        -73.98881759372563,
        40.692154321583814
      ],
      "time": 44,
      "stayDuration": 1,
      "interior": 0
    }, {
      "name": "Antonio's Pizzeria",
      "coordinates": [
        -73.99097067971337,
        40.69289260483458
      ],
      "time": 48,
      "stayDuration": 11,
      "interior": 1
    }, {
      "name": "Startbucks Court Street",
      "coordinates": [
        -73.99122099998579,
        40.69234812360682
      ],
      "time": 61,
      "stayDuration": 27,
      "interior": 1
    }, {
      "name": "ISSUE Project Room",
      "coordinates": [
        -73.98952481348374,
        40.690692717192576
      ],
      "time": 92,
      "stayDuration": 8,
      "interior": 1
    }
  ],
  "Sean Forlenza": [{
      "name": "ISSUE Project Room",
      "coordinates": [
        -73.98952481348374,
        40.690692717192576
      ],
      "time": 0,
      "stayDuration": 0,
      "interior": 1
    }, {
      "name": "Court House Apartments",
      "coordinates": [
        -73.99173165443744,
        40.69013197694835
      ],
      "time": 3,
      "stayDuration": 5,
      "interior": 1
    }, {
      "name": "Garden Place",
      "coordinates": [
        -73.9964405283726,
        40.69237800375038
      ],
      "time": 14,
      "stayDuration": 0
    }, {
      "name": "Sydney Place",
      "coordinates": [
        -73.99435557332862,
        40.69263447367899
      ],
      "time": 19,
      "stayDuration": 0
    }, {
      "name": "Court St",
      "coordinates": [
        -73.99120274182877,
        40.69245014350602
      ],
      "time": 28,
      "stayDuration": 0
    }, {
      "name": "Court House Apartments",
      "coordinates": [
        -73.99173165443744,
        40.69013197694835
      ],
      "time": 32,
      "stayDuration": 4,
      "interior": 1
    }, {
      "name": "Antonio's Pizzeria",
      "coordinates": [
        -73.99097067971337,
        40.69289260483458
      ],
      "time": 40,
      "stayDuration": 20,
      "interior": 1
    }, {
      "name": "Hank's",
      "coordinates": [
        -73.98844510495121,
        40.69237350291553
      ],
      "time": 65,
      "stayDuration": 1
    }, {
      "name": "Willoughby Plaza",
      "coordinates": [
        -73.98845583979448,
        40.692257394867
      ],
      "time": 66,
      "stayDuration": 6
    }, {
      "name": "Fressh 99 Cents Pizza",
      "coordinates": [
        -73.9870247024781,
        40.692315773904085
      ],
      "time": 74,
      "stayDuration": 5,
      "interior": 1
    }, {
      "name": "Metro Star",
      "coordinates": [
        -73.98726119362772,
        40.692729492972035
      ],
      "time": 82,
      "stayDuration": 4
    }, {
      "name": "ISSUE Project Room",
      "coordinates": [
        -73.98952481348374,
        40.690692717192576
      ],
      "time": 89,
      "stayDuration": 11,
      "interior": 1
    }
  ],
  "Dave Wreck": [{
      "name": "ISSUE Project Room",
      "coordinates": [
        -73.98952481348374,
        40.690692717192576
      ],
      "time": 0,
      "stayDuration": 1,
      "interior": 1
    }, {
      "name": "original Hank's Atlantic Ave",
      "coordinates": [
        -73.98093123475684,
        40.685222167267995
      ],
      "time": 13,
      "stayDuration": 3
    }, {
      "name": "Transit Museum",
      "coordinates": [
        -73.98987036172696,
        40.690507592000074
      ],
      "time": 27,
      "stayDuration": 4
    }, {
      "name": "Antonio's Pizzeria",
      "coordinates": [
        -73.99097067971337,
        40.69289260483458
      ],
      "time": 34,
      "stayDuration": 26,
      "interior": 1
    }, {
      "name": "Hank's",
      "coordinates": [
        -73.98844510495121,
        40.69237350291553
      ],
      "time": 65,
      "stayDuration": 1
    }, {
      "name": "Willoughby Plaza",
      "coordinates": [
        -73.98845583979448,
        40.692257394867
      ],
      "time": 66,
      "stayDuration": 6
    }, {
      "name": "Fressh 99 Cents Pizza",
      "coordinates": [
        -73.9870247024781,
        40.692315773904085
      ],
      "time": 74,
      "stayDuration": 5,
      "interior": 1
    }, {
      "name": "Metro Star",
      "coordinates": [
        -73.98726119362772,
        40.692729492972035
      ],
      "time": 82,
      "stayDuration": 4
    }, {
      "name": "ISSUE Project Room",
      "coordinates": [
        -73.98952481348374,
        40.690692717192576
      ],
      "time": 90,
      "stayDuration": 10,
      "interior": 1
    }
  ],
  "Julie Lin": [{
      "name": "ISSUE Project Room",
      "coordinates": [
        -73.98952481348374,
        40.690692717192576
      ],
      "time": 0,
      "stayDuration": 1,
      "interior": 1
    }, {
      "name": "Macy's Fulton Mall",
      "pass_through": [-73.98935421538027, 40.69186986883426, -73.98886242809385, 40.692029092148374],
      "coordinates": [
        -73.9856805852973,
        40.69064715576613
      ],
      "time": 7,
      "stayDuration": 21,
      "interior": 1
    }, {
      "name": "McDonald's Fulton St",
      "coordinates": [
        -73.9861538135035,
        40.690823527448
      ],
      "time": 29,
      "stayDuration": 15,
      "interior": 1
    }, {
      "name": "Macy's Fulton Mall",
      "coordinates": [
        -73.9856805852973,
        40.69064715576613
      ],
      "time": 46,
      "stayDuration": 18,
      "interior": 1
    }, {
      "name": "Macy's Fulton Mall",
      "coordinates": [
        -73.98582954757137,
        40.69074647314818
      ],
      "time": 64,
      "stayDuration": 4
    }, {
      "name": "Startbucks Court Street",
      "coordinates": [
        -73.99122099998579,
        40.69234812360682
      ],
      "time": 76,
      "stayDuration": 12,
      "interior": 1
    }, {
      "name": "ISSUE Project Room",
      "coordinates": [
        -73.98952481348374,
        40.690692717192576
      ],
      "time": 92,
      "stayDuration": 8,
      "interior": 1
    }
  ],
  "Catherine Ruello": [{
      "name": "ISSUE Project Room",
      "coordinates": [
        -73.98952481348374,
        40.690692717192576
      ],
      "time": 0,
      "stayDuration": 0,
      "interior": 1
    }, {
      "name": "Amberly Apartments",
      "coordinates": [
        -73.98683576050996,
        40.69785717990496
      ],
      "time": 11,
      "stayDuration": 13
    }, {
      "name": "Belltel Apartments",
      "pass_through": [-73.98531857565376, 40.69741570144123, -73.9835696915502, 40.69211621258509],
      "coordinates": [
        -73.98512109426878,
        40.692481809057
      ],
      "time": 35,
      "stayDuration": 43,
      "interior": 1
    }, {
      "name": "Circa Brewing Co.",
      "coordinates": [
        -73.98613399879105,
        40.69168028817751
      ],
      "time": 79,
      "stayDuration": 3,
      "interior": 1
    }, {
      "name": "ISSUE Project Room",
      "coordinates": [
        -73.98952481348374,
        40.690692717192576
      ],
      "time": 88,
      "stayDuration": 12,
      "interior": 1
    }
  ],
  "Kenneth Pietrobono": [{
      "name": "ISSUE Project Room",
      "coordinates": [
        -73.98952481348374,
        40.690692717192576
      ],
      "time": 0,
      "stayDuration": 0,
      "interior": 1
    }, {
      "name": "Masison Kayser Court Street",
      "coordinates": [
        -73.99092207937201,
        40.69204633227292
      ],
      "time": 3,
      "stayDuration": 0,
      "interior": 1
    }, {
      "name": "Brooklyner",
      "coordinates": [
        -73.98611752487568,
        40.69267622682679
      ],
      "time": 17,
      "stayDuration": 24,
      "interior": 1
    }, {
      "name": "Belltel Apartments",
      "coordinates": [
        -73.98512109426878,
        40.692481809057
      ],
      "time": 48,
      "stayDuration": 26,
      "interior": 25
    }, {
      "name": "Willoughby Plaza",
      "coordinates": [
        -73.98845583979448,
        40.692257394867
      ],
      "time": 78,
      "stayDuration": 11
    }, {
      "name": "ISSUE Project Room",
      "coordinates": [
        -73.98952481348374,
        40.690692717192576
      ],
      "time": 91,
      "stayDuration": 9,
      "interior": 1
    }
  ],
  "Isaiah Baker": [{
      "name": "ISSUE Project Room",
      "coordinates": [
        -73.98952481348374,
        40.690692717192576
      ],
      "time": 0,
      "stayDuration": 0,
      "interior": 1
    }, {
      "name": "Brooklyner",
      "coordinates": [
        -73.98611752487568,
        40.69267622682679
      ],
      "time": 4,
      "stayDuration": 40,
      "interior": 1
    }, {
      "name": "Uni K Wax Studio",
      "coordinates": [
        -73.98062198696374,
        40.687510673886436
      ],
      "time": 57,
      "stayDuration": 3
    }, {
      "name": "Mono No Aware",
      "coordinates": [
        -73.97979011251334,40.687714389906546
      ],
      "time": 61,
      "stayDuration": 9,
      "interior": 1
    }, {
      "name": "Circa Brewing Co.",
      "coordinates": [
        -73.98613399879105,
        40.69168028817751
      ],
      "time": 78,
      "stayDuration": 6,
      "interior": 1
    }, {
      "name": "ISSUE Project Room",
      "coordinates": [
        -73.98952481348374,
        40.690692717192576
      ],
      "time": 88,
      "stayDuration": 12,
      "interior": 1
    }
  ]
}
